{
   "plus_code" : {
      "compound_code" : "JPPW+PP Amrani, Iran",
      "global_code" : "8H6WJPPW+PP"
   },
   "results" : [
      {
         "address_components" : [
            {
               "long_name" : "95",
               "short_name" : "95",
               "types" : [ "route" ]
            },
            {
               "long_name" : "Razavi Khorasan Province",
               "short_name" : "Razavi Khorasan Province",
               "types" : [ "administrative_area_level_1", "political" ]
            },
            {
               "long_name" : "Iran",
               "short_name" : "IR",
               "types" : [ "country", "political" ]
            }
         ],
         "formatted_address" : "Razavi Khorasan Province, 95, Iran",
         "geometry" : {
            "bounds" : {
               "northeast" : {
                  "lat" : 34.6885092,
                  "lng" : 58.8028656
               },
               "southwest" : {
                  "lat" : 34.6318219,
                  "lng" : 58.74227639999999
               }
            },
            "location" : {
               "lat" : 34.6581968,
               "lng" : 58.775172
            },
            "location_type" : "GEOMETRIC_CENTER",
            "viewport" : {
               "northeast" : {
                  "lat" : 34.6885092,
                  "lng" : 58.8028656
               },
               "southwest" : {
                  "lat" : 34.6318219,
                  "lng" : 58.74227639999999
               }
            }
         },
         "place_id" : "ChIJT_wriqM_Ej8R7OV-qV0crEs",
         "types" : [ "route" ]
      },
      {
         "address_components" : [
            {
               "long_name" : "Razavi Khorasan Province",
               "short_name" : "Razavi Khorasan Province",
               "types" : [ "administrative_area_level_1", "political" ]
            },
            {
               "long_name" : "Iran",
               "short_name" : "IR",
               "types" : [ "country", "political" ]
            }
         ],
         "formatted_address" : "Razavi Khorasan Province, Iran",
         "geometry" : {
            "bounds" : {
               "northeast" : {
                  "lat" : 37.795559,
                  "lng" : 61.282579
               },
               "southwest" : {
                  "lat" : 33.4001927,
                  "lng" : 56.4763309
               }
            },
            "location" : {
               "lat" : 35.1020253,
               "lng" : 59.1041758
            },
            "location_type" : "APPROXIMATE",
            "viewport" : {
               "northeast" : {
                  "lat" : 37.795559,
                  "lng" : 61.282579
               },
               "southwest" : {
                  "lat" : 33.4001927,
                  "lng" : 56.4763309
               }
            }
         },
         "place_id" : "ChIJzVQLpM7REj8RYGbOyN7A13Q",
         "types" : [ "administrative_area_level_1", "political" ]
      },
      {
         "address_components" : [
            {
               "long_name" : "Iran",
               "short_name" : "IR",
               "types" : [ "country", "political" ]
            }
         ],
         "formatted_address" : "Iran",
         "geometry" : {
            "bounds" : {
               "northeast" : {
                  "lat" : 39.782056,
                  "lng" : 63.3333366
               },
               "southwest" : {
                  "lat" : 24.8066999,
                  "lng" : 44.0326949
               }
            },
            "location" : {
               "lat" : 32.427908,
               "lng" : 53.688046
            },
            "location_type" : "APPROXIMATE",
            "viewport" : {
               "northeast" : {
                  "lat" : 39.782056,
                  "lng" : 63.3333366
               },
               "southwest" : {
                  "lat" : 24.8066999,
                  "lng" : 44.0326949
               }
            }
         },
         "place_id" : "ChIJ8R1rwS7s9z4RzvpRntOVsEA",
         "types" : [ "country", "political" ]
      }
   ],
   "status" : "OK"
}
