{
   "plus_code" : {
      "compound_code" : "5V3P+J7 Kirgiz-Gava, Kyrgyzstan",
      "global_code" : "8JHJ5V3P+J7"
   },
   "results" : [
      {
         "address_components" : [
            {
               "long_name" : "R-191",
               "short_name" : "R-191",
               "types" : [ "route" ]
            },
            {
               "long_name" : "Bazar Korgon",
               "short_name" : "Bazar Korgon",
               "types" : [ "administrative_area_level_2", "political" ]
            },
            {
               "long_name" : "Jalal-Abad Region",
               "short_name" : "Jalal-Abad Region",
               "types" : [ "administrative_area_level_1", "political" ]
            },
            {
               "long_name" : "Kyrgyzstan",
               "short_name" : "KG",
               "types" : [ "country", "political" ]
            }
         ],
         "formatted_address" : "R-191, Kyrgyzstan",
         "geometry" : {
            "bounds" : {
               "northeast" : {
                  "lat" : 41.1717197,
                  "lng" : 72.8972943
               },
               "southwest" : {
                  "lat" : 41.145999,
                  "lng" : 72.8812719
               }
            },
            "location" : {
               "lat" : 41.1591756,
               "lng" : 72.8884929
            },
            "location_type" : "GEOMETRIC_CENTER",
            "viewport" : {
               "northeast" : {
                  "lat" : 41.1717197,
                  "lng" : 72.8972943
               },
               "southwest" : {
                  "lat" : 41.145999,
                  "lng" : 72.8812719
               }
            }
         },
         "place_id" : "ChIJn9XzWCIuvTgRYlTOVM58Gog",
         "types" : [ "route" ]
      },
      {
         "address_components" : [
            {
               "long_name" : "Kirgiz-Gava",
               "short_name" : "Kirgiz-Gava",
               "types" : [ "locality", "political" ]
            },
            {
               "long_name" : "Bazar Korgon",
               "short_name" : "Bazar Korgon",
               "types" : [ "administrative_area_level_2", "political" ]
            },
            {
               "long_name" : "Jalal-Abad Region",
               "short_name" : "Jalal-Abad Region",
               "types" : [ "administrative_area_level_1", "political" ]
            },
            {
               "long_name" : "Kyrgyzstan",
               "short_name" : "KG",
               "types" : [ "country", "political" ]
            }
         ],
         "formatted_address" : "Kirgiz-Gava, Kyrgyzstan",
         "geometry" : {
            "bounds" : {
               "northeast" : {
                  "lat" : 41.2208895,
                  "lng" : 72.8917551
               },
               "southwest" : {
                  "lat" : 41.1477671,
                  "lng" : 72.84772409999999
               }
            },
            "location" : {
               "lat" : 41.1781747,
               "lng" : 72.86188659999999
            },
            "location_type" : "APPROXIMATE",
            "viewport" : {
               "northeast" : {
                  "lat" : 41.2208895,
                  "lng" : 72.8917551
               },
               "southwest" : {
                  "lat" : 41.1477671,
                  "lng" : 72.84772409999999
               }
            }
         },
         "place_id" : "ChIJp0Bp-kMsvTgR_AitKHMA-O8",
         "types" : [ "locality", "political" ]
      },
      {
         "address_components" : [
            {
               "long_name" : "Bazar Korgon",
               "short_name" : "Bazar Korgon",
               "types" : [ "administrative_area_level_2", "political" ]
            },
            {
               "long_name" : "Jalal-Abad Region",
               "short_name" : "Jalal-Abad Region",
               "types" : [ "administrative_area_level_1", "political" ]
            },
            {
               "long_name" : "Kyrgyzstan",
               "short_name" : "KG",
               "types" : [ "country", "political" ]
            }
         ],
         "formatted_address" : "Bazar Korgon, Kyrgyzstan",
         "geometry" : {
            "bounds" : {
               "northeast" : {
                  "lat" : 41.4972655,
                  "lng" : 73.1977844
               },
               "southwest" : {
                  "lat" : 40.8569285,
                  "lng" : 72.56040569999999
               }
            },
            "location" : {
               "lat" : 41.1993968,
               "lng" : 72.99329689999999
            },
            "location_type" : "APPROXIMATE",
            "viewport" : {
               "northeast" : {
                  "lat" : 41.4972655,
                  "lng" : 73.1977844
               },
               "southwest" : {
                  "lat" : 40.8569285,
                  "lng" : 72.56040569999999
               }
            }
         },
         "place_id" : "ChIJM4XoS-W1ojgRc_jgKud39cc",
         "types" : [ "administrative_area_level_2", "political" ]
      },
      {
         "address_components" : [
            {
               "long_name" : "Jalal-Abad Region",
               "short_name" : "Jalal-Abad Region",
               "types" : [ "administrative_area_level_1", "political" ]
            },
            {
               "long_name" : "Kyrgyzstan",
               "short_name" : "KG",
               "types" : [ "country", "political" ]
            }
         ],
         "formatted_address" : "Jalal-Abad Region, Kyrgyzstan",
         "geometry" : {
            "bounds" : {
               "northeast" : {
                  "lat" : 42.156296,
                  "lng" : 74.91057930000001
               },
               "southwest" : {
                  "lat" : 40.256115,
                  "lng" : 70.1807214
               }
            },
            "location" : {
               "lat" : 41.106808,
               "lng" : 72.8988069
            },
            "location_type" : "APPROXIMATE",
            "viewport" : {
               "northeast" : {
                  "lat" : 42.156296,
                  "lng" : 74.91057930000001
               },
               "southwest" : {
                  "lat" : 40.256115,
                  "lng" : 70.1807214
               }
            }
         },
         "place_id" : "ChIJZ_Y3HKc3ozgRGVCldXSjb00",
         "types" : [ "administrative_area_level_1", "political" ]
      },
      {
         "address_components" : [
            {
               "long_name" : "Kyrgyzstan",
               "short_name" : "KG",
               "types" : [ "country", "political" ]
            }
         ],
         "formatted_address" : "Kyrgyzstan",
         "geometry" : {
            "bounds" : {
               "northeast" : {
                  "lat" : 43.2653569,
                  "lng" : 80.2281514
               },
               "southwest" : {
                  "lat" : 39.180254,
                  "lng" : 69.250998
               }
            },
            "location" : {
               "lat" : 41.20438,
               "lng" : 74.766098
            },
            "location_type" : "APPROXIMATE",
            "viewport" : {
               "northeast" : {
                  "lat" : 43.2653569,
                  "lng" : 80.2281514
               },
               "southwest" : {
                  "lat" : 39.180254,
                  "lng" : 69.250998
               }
            }
         },
         "place_id" : "ChIJ8yfp_B04lzgRM8SITrdYECg",
         "types" : [ "country", "political" ]
      }
   ],
   "status" : "OK"
}
