{
   "plus_code" : {
      "compound_code" : "72HX+H4 Baqiao, Xi'an, Shaanxi, China",
      "global_code" : "8P6F72HX+H4"
   },
   "results" : [
      {
         "address_components" : [
            {
               "long_name" : "Baqiao",
               "short_name" : "Baqiao",
               "types" : [ "political", "sublocality", "sublocality_level_1" ]
            },
            {
               "long_name" : "Xi'an",
               "short_name" : "Xi'an",
               "types" : [ "locality", "political" ]
            },
            {
               "long_name" : "Shaanxi",
               "short_name" : "Shaanxi",
               "types" : [ "administrative_area_level_1", "political" ]
            },
            {
               "long_name" : "China",
               "short_name" : "CN",
               "types" : [ "country", "political" ]
            }
         ],
         "formatted_address" : "China, Shaanxi, Xi'an, Baqiao, 梁家街",
         "geometry" : {
            "location" : {
               "lat" : 34.278977,
               "lng" : 109.047866
            },
            "location_type" : "GEOMETRIC_CENTER",
            "viewport" : {
               "northeast" : {
                  "lat" : 34.2803259802915,
                  "lng" : 109.0492149802915
               },
               "southwest" : {
                  "lat" : 34.2776280197085,
                  "lng" : 109.0465170197085
               }
            }
         },
         "place_id" : "ChIJ77rtKVhkYzYRt4novtsbbrk",
         "plus_code" : {
            "compound_code" : "72HX+H4 Baqiao, Xi'an, Shaanxi, China",
            "global_code" : "8P6F72HX+H4"
         },
         "types" : [ "establishment", "point_of_interest", "school" ]
      },
      {
         "address_components" : [
            {
               "long_name" : "Jin Bei Qi Che Pei Jian Jing Xiao Bu",
               "short_name" : "Jin Bei Qi Che Pei Jian Jing Xiao Bu",
               "types" : [ "premise" ]
            },
            {
               "long_name" : "Baqiao Qu",
               "short_name" : "Baqiao Qu",
               "types" : [ "political", "sublocality", "sublocality_level_1" ]
            },
            {
               "long_name" : "Xian Shi",
               "short_name" : "Xian Shi",
               "types" : [ "locality", "political" ]
            },
            {
               "long_name" : "Shaanxi Sheng",
               "short_name" : "Shaanxi Sheng",
               "types" : [ "administrative_area_level_1", "political" ]
            },
            {
               "long_name" : "China",
               "short_name" : "CN",
               "types" : [ "country", "political" ]
            },
            {
               "long_name" : "710000",
               "short_name" : "710000",
               "types" : [ "postal_code" ]
            }
         ],
         "formatted_address" : "Jin Bei Qi Che Pei Jian Jing Xiao Bu, Baqiao Qu, Xian Shi, Shaanxi Sheng, China, 710000",
         "geometry" : {
            "bounds" : {
               "northeast" : {
                  "lat" : 34.2789159,
                  "lng" : 109.050246
               },
               "southwest" : {
                  "lat" : 34.2785588,
                  "lng" : 109.0491526
               }
            },
            "location" : {
               "lat" : 34.2786971,
               "lng" : 109.0496853
            },
            "location_type" : "ROOFTOP",
            "viewport" : {
               "northeast" : {
                  "lat" : 34.2800863302915,
                  "lng" : 109.0510482802915
               },
               "southwest" : {
                  "lat" : 34.2773883697085,
                  "lng" : 109.0483503197085
               }
            }
         },
         "place_id" : "ChIJqxl331lkYzYRdmgjs8pCXWY",
         "types" : [ "premise" ]
      },
      {
         "address_components" : [
            {
               "long_name" : "Dong San Huan",
               "short_name" : "Dong San Huan",
               "types" : [ "route" ]
            },
            {
               "long_name" : "Baqiao Qu",
               "short_name" : "Baqiao Qu",
               "types" : [ "political", "sublocality", "sublocality_level_1" ]
            },
            {
               "long_name" : "Xian Shi",
               "short_name" : "Xian Shi",
               "types" : [ "locality", "political" ]
            },
            {
               "long_name" : "Shaanxi Sheng",
               "short_name" : "Shaanxi Sheng",
               "types" : [ "administrative_area_level_1", "political" ]
            },
            {
               "long_name" : "China",
               "short_name" : "CN",
               "types" : [ "country", "political" ]
            },
            {
               "long_name" : "710000",
               "short_name" : "710000",
               "types" : [ "postal_code" ]
            }
         ],
         "formatted_address" : "Dong San Huan, Baqiao Qu, Xian Shi, Shaanxi Sheng, China, 710000",
         "geometry" : {
            "bounds" : {
               "northeast" : {
                  "lat" : 34.2809379,
                  "lng" : 109.0480759
               },
               "southwest" : {
                  "lat" : 34.2788102,
                  "lng" : 109.0477547
               }
            },
            "location" : {
               "lat" : 34.2798741,
               "lng" : 109.0479153
            },
            "location_type" : "GEOMETRIC_CENTER",
            "viewport" : {
               "northeast" : {
                  "lat" : 34.2812230302915,
                  "lng" : 109.0492642802915
               },
               "southwest" : {
                  "lat" : 34.2785250697085,
                  "lng" : 109.0465663197085
               }
            }
         },
         "place_id" : "ChIJ1wNaMVhkYzYRohuyD13gk78",
         "types" : [ "route" ]
      },
      {
         "address_components" : [
            {
               "long_name" : "710025",
               "short_name" : "710025",
               "types" : [ "postal_code" ]
            },
            {
               "long_name" : "Xi'an",
               "short_name" : "Xi'an",
               "types" : [ "locality", "political" ]
            },
            {
               "long_name" : "China",
               "short_name" : "CN",
               "types" : [ "country", "political" ]
            }
         ],
         "formatted_address" : "Xi'an, China, 710025",
         "geometry" : {
            "bounds" : {
               "northeast" : {
                  "lat" : 34.3969892,
                  "lng" : 109.1880048
               },
               "southwest" : {
                  "lat" : 34.2456002,
                  "lng" : 109.0453201
               }
            },
            "location" : {
               "lat" : 34.3065327,
               "lng" : 109.1053719
            },
            "location_type" : "APPROXIMATE",
            "viewport" : {
               "northeast" : {
                  "lat" : 34.3969892,
                  "lng" : 109.1880048
               },
               "southwest" : {
                  "lat" : 34.2456002,
                  "lng" : 109.0453201
               }
            }
         },
         "place_id" : "ChIJdY_t-k1hYzYRHM0xp-pdPgI",
         "types" : [ "postal_code" ]
      },
      {
         "address_components" : [
            {
               "long_name" : "Baqiao",
               "short_name" : "Baqiao",
               "types" : [ "political", "sublocality", "sublocality_level_1" ]
            },
            {
               "long_name" : "Xi'an",
               "short_name" : "Xi'an",
               "types" : [ "locality", "political" ]
            },
            {
               "long_name" : "Shaanxi",
               "short_name" : "Shaanxi",
               "types" : [ "administrative_area_level_1", "political" ]
            },
            {
               "long_name" : "China",
               "short_name" : "CN",
               "types" : [ "country", "political" ]
            }
         ],
         "formatted_address" : "Baqiao, Xi'an, Shaanxi, China",
         "geometry" : {
            "bounds" : {
               "northeast" : {
                  "lat" : 34.4538334,
                  "lng" : 109.277381
               },
               "southwest" : {
                  "lat" : 34.1676956,
                  "lng" : 108.9957878
               }
            },
            "location" : {
               "lat" : 34.273409,
               "lng" : 109.064671
            },
            "location_type" : "APPROXIMATE",
            "viewport" : {
               "northeast" : {
                  "lat" : 34.4538334,
                  "lng" : 109.277381
               },
               "southwest" : {
                  "lat" : 34.1676956,
                  "lng" : 108.9957878
               }
            }
         },
         "place_id" : "ChIJJUQv4SZhYzYRKoKDDHkeOCc",
         "types" : [ "political", "sublocality", "sublocality_level_1" ]
      },
      {
         "address_components" : [
            {
               "long_name" : "Xi'an",
               "short_name" : "Xi'an",
               "types" : [ "locality", "political" ]
            },
            {
               "long_name" : "Shaanxi",
               "short_name" : "Shaanxi",
               "types" : [ "administrative_area_level_1", "political" ]
            },
            {
               "long_name" : "China",
               "short_name" : "CN",
               "types" : [ "country", "political" ]
            }
         ],
         "formatted_address" : "Xi'an, Shaanxi, China",
         "geometry" : {
            "bounds" : {
               "northeast" : {
                  "lat" : 34.7431036,
                  "lng" : 109.8224325
               },
               "southwest" : {
                  "lat" : 33.6938766,
                  "lng" : 107.6637527
               }
            },
            "location" : {
               "lat" : 34.341574,
               "lng" : 108.93977
            },
            "location_type" : "APPROXIMATE",
            "viewport" : {
               "northeast" : {
                  "lat" : 34.7431036,
                  "lng" : 109.8224325
               },
               "southwest" : {
                  "lat" : 33.6938766,
                  "lng" : 107.6637527
               }
            }
         },
         "place_id" : "ChIJuResIul5YzYRLliUp_1m1IU",
         "types" : [ "locality", "political" ]
      },
      {
         "address_components" : [
            {
               "long_name" : "Shaanxi",
               "short_name" : "Shaanxi",
               "types" : [ "administrative_area_level_1", "political" ]
            },
            {
               "long_name" : "China",
               "short_name" : "CN",
               "types" : [ "country", "political" ]
            }
         ],
         "formatted_address" : "Shaanxi, China",
         "geometry" : {
            "bounds" : {
               "northeast" : {
                  "lat" : 39.5870102,
                  "lng" : 111.2480539
               },
               "southwest" : {
                  "lat" : 31.7050596,
                  "lng" : 105.4919487
               }
            },
            "location" : {
               "lat" : 35.3939908,
               "lng" : 109.1880047
            },
            "location_type" : "APPROXIMATE",
            "viewport" : {
               "northeast" : {
                  "lat" : 39.5870102,
                  "lng" : 111.2480539
               },
               "southwest" : {
                  "lat" : 31.7050596,
                  "lng" : 105.4919487
               }
            }
         },
         "place_id" : "ChIJn6frE2B6YzYRFldhy29uyUE",
         "types" : [ "administrative_area_level_1", "political" ]
      },
      {
         "address_components" : [
            {
               "long_name" : "China",
               "short_name" : "CN",
               "types" : [ "country", "political" ]
            }
         ],
         "formatted_address" : "China",
         "geometry" : {
            "bounds" : {
               "northeast" : {
                  "lat" : 53.5609739,
                  "lng" : 134.7754563
               },
               "southwest" : {
                  "lat" : 17.9996,
                  "lng" : 73.4994136
               }
            },
            "location" : {
               "lat" : 35.86166,
               "lng" : 104.195397
            },
            "location_type" : "APPROXIMATE",
            "viewport" : {
               "northeast" : {
                  "lat" : 53.5609739,
                  "lng" : 134.7754563
               },
               "southwest" : {
                  "lat" : 17.9996,
                  "lng" : 73.4994136
               }
            }
         },
         "place_id" : "ChIJwULG5WSOUDERbzafNHyqHZU",
         "types" : [ "country", "political" ]
      }
   ],
   "status" : "OK"
}
